City,Cost of Living Index,Rent Index,Cost of Living Plus Rent Index,Groceries Index,Restaurant Price Index,Local Purchasing Power Index,Country,Lat,Lng
Hamilton,149.02,96.1,124.22,157.89,155.22,79.43,Bermuda,32.2945837,-64.7858887
Zurich,131.24,69.26,102.19,136.14,132.52,129.79,Switzerland,47.3768866,8.541694
Basel,130.93,49.38,92.7,137.07,130.95,111.53,Switzerland,47.5595986,7.5885761
Zug,128.13,72.12,101.87,132.61,130.93,143.4,Switzerland,47.1661672,8.5154946
Lugano,123.99,44.99,86.96,129.17,119.8,111.96,Switzerland,46.0036778,8.951051999999999
Lausanne,122.03,59.55,92.74,122.56,127.01,127.01,Switzerland,46.5196535,6.6322734
Beirut,120.47,27.76,77.01,141.33,116.95,15.4,Lebanon,33.8937913,35.5017767
Bern,118.16,46.12,84.39,118.37,120.88,112.46,Switzerland,46.9479739,7.4474468
Geneva,114.05,75.05,95.77,112.7,126.31,120.6,Switzerland,46.2043907,6.1431577
Stavanger,104.61,35.38,72.16,102.46,107.51,85.9,Norway,58.9699756,5.7331073
Honolulu,103.65,65.07,85.56,114.92,94.28,89.24,United States,21.3098845,-157.8581401
Oslo,102.33,46.39,76.11,97.62,111.54,85.18,Norway,59.9138688,10.7522454
Bergen,100.38,34.84,69.66,96.22,103.51,86.96,Norway,60.39126279999999,5.3220544
New York,100.0,100.0,100.0,100.0,100.0,100.0,United States,40.7127753,-74.0059728
Trondheim,99.43,37.74,70.52,95.11,103.21,88.0,Norway,63.4305149,10.3950528
Tromso,98.99,37.19,70.02,97.73,103.47,89.46,Norway,69.6497717,18.984122
Reykjavik,97.61,46.27,73.55,91.92,105.77,74.84,Iceland,64.146582,-21.9426354
Saint Helier,96.54,65.22,81.85,79.94,109.51,80.43,Jersey,49.1805019,-2.103233
Santa Barbara,95.01,78.42,87.23,99.53,99.41,93.86,United States,34.4208305,-119.6981901
Tel Aviv-Yafo,94.49,53.22,75.15,82.98,106.66,70.22,Israel,32.0852999,34.78176759999999
Berkeley,94.36,88.22,91.48,106.23,78.85,85.78,United States,37.8715226,-122.273042
San Francisco,93.91,108.42,100.72,97.05,93.4,133.16,United States,37.7749295,-122.4194155
Oakland,92.93,87.79,90.52,98.46,78.71,111.73,United States,37.8043514,-122.2711639
Anchorage,91.23,39.29,66.88,97.95,78.76,118.63,United States,61.2175758,-149.8996785
Santa Clara,89.41,90.39,89.87,100.63,73.46,155.41,United States,37.3541079,-121.9552356
Petah Tikva,88.86,32.68,62.52,76.04,100.37,72.86,Israel,32.084041,34.887762
Beersheba,88.77,23.1,57.99,81.06,92.07,80.11,Israel,31.252973,34.791462
Seattle,88.52,65.84,77.89,87.34,93.09,145.39,United States,47.6062095,-122.3320708
Copenhagen,88.34,49.42,70.1,71.49,106.02,90.67,Denmark,55.6760968,12.5683371
Arhus,88.18,36.52,63.97,69.2,111.78,95.49,Denmark,56.162939,10.203921
Haifa,87.44,24.34,57.86,74.28,94.59,77.61,Israel,32.7940463,34.989571
Jerusalem,86.32,40.36,64.78,74.46,101.01,79.55,Israel,31.768319,35.21371
Nassau,85.98,36.36,62.72,76.79,86.61,46.7,Bahamas,25.0443312,-77.3503609
London,85.62,76.51,81.35,64.08,89.41,88.79,United Kingdom,51.5072178,-0.1275862
Tokyo,85.61,42.71,65.5,94.94,52.26,88.58,Japan,35.6761919,139.6503106
Boston,85.47,78.26,82.09,85.4,90.86,115.72,United States,42.3600825,-71.0588801
Nice,84.6,36.1,61.87,83.37,87.59,64.22,France,43.7101728,7.261953200000001
Paris,84.35,48.79,67.68,83.65,81.64,80.2,France,48.856614,2.3522219
Queens,84.02,69.36,77.15,79.19,83.16,105.72,United States,40.7282239,-73.7948516
Singapore,83.98,66.43,75.75,77.08,61.17,91.34,Singapore,1.352083,103.819836
Washington,83.74,73.47,78.93,83.86,82.36,121.83,United States,47.7510741,-120.7401386
Sydney,83.21,58.03,71.41,79.65,73.06,104.52,Australia,-33.8688197,151.2092955
Luxembourg,82.99,63.43,73.82,75.83,95.17,100.19,Luxembourg,49.815273,6.129582999999999
Espoo,82.46,35.95,60.66,74.46,100.73,90.3,Finland,60.2054911,24.6559001
Aalborg,82.43,23.26,54.7,71.24,93.27,100.93,Denmark,57.0488195,9.921747
Pittsburgh,82.36,39.14,62.1,89.37,68.36,115.5,United States,40.44062479999999,-79.9958864
Darwin,82.06,35.04,60.02,83.7,83.45,109.44,Australia,-12.4637333,130.8444446
Amsterdam,80.82,55.8,69.09,64.45,85.59,94.45,Netherlands,52.3675734,4.9041389
Jersey City,80.79,63.0,72.45,81.67,73.28,155.89,United States,40.7177545,-74.0431435
Hong Kong,80.71,74.57,77.83,84.72,58.58,65.74,Hong Kong,22.3193039,114.1693611
Breda,80.64,32.34,58.0,67.22,85.84,84.3,Netherlands,51.5719149,4.768323
Nanaimo,80.26,34.06,58.6,87.2,67.48,57.49,Canada,49.1658836,-123.9400647
Auckland,80.19,45.49,63.93,75.19,79.09,79.21,New Zealand,-36.85088270000001,174.7644881
Haarlem,79.79,52.81,67.14,66.33,79.42,77.06,Netherlands,52.3873878,4.6462194
Utrecht,79.76,44.61,63.28,65.53,85.88,77.9,Netherlands,52.09073739999999,5.1214201
Brighton,79.57,51.44,66.39,63.41,86.88,74.78,United Kingdom,50.8229402,-0.1362672
Brisbane,79.44,37.56,59.81,79.33,74.5,103.8,Australia,-27.4704528,153.0260341
Philadelphia,79.19,49.57,65.31,81.67,71.07,115.61,United States,39.9525839,-75.1652215
Los Angeles,79.19,74.48,76.98,75.94,91.73,126.12,United States,34.0522342,-118.2436849
Minneapolis,79.08,47.05,64.07,79.07,78.57,114.68,United States,44.977753,-93.2650108
Turku,79.06,23.62,53.07,71.16,89.3,96.82,Finland,60.4518126,22.2666303
Dublin,79.05,62.39,71.24,63.64,83.31,81.82,Ireland,53.3498053,-6.2603097
Stockholm,78.92,43.96,62.54,70.58,82.0,95.42,Sweden,59.32932349999999,18.0685808
Birmingham,78.82,28.19,55.09,84.3,75.48,84.93,United States,33.5185892,-86.8103567
Seoul,78.66,33.87,57.66,98.28,47.26,74.5,South Korea,37.566535,126.9779692
Eindhoven,78.24,37.74,59.26,64.14,78.09,86.92,Netherlands,51.42314229999999,5.462289699999999
Odense,78.23,28.34,54.85,63.2,90.81,94.79,Denmark,55.40375599999999,10.40237
Miami,78.0,64.96,71.88,76.72,79.18,93.71,United States,25.7616798,-80.1917902
Groningen,77.94,27.96,54.51,65.77,77.83,78.31,Netherlands,53.2193835,6.566501799999999
Sacramento,77.88,50.55,65.07,80.84,70.23,101.43,United States,38.5815719,-121.4943996
Nijmegen,77.8,31.3,56.0,65.82,79.62,86.52,Netherlands,51.8448837,5.842828099999999
Munich,77.52,47.34,63.37,66.77,76.82,95.16,Germany,48.1351253,11.5819806
Galway,77.44,39.8,59.8,67.73,77.69,71.94,Ireland,53.270668,-9.0567905
St. John's,77.4,21.57,51.23,77.91,77.37,62.75,Canada,47.5615096,-52.7125768
Innsbruck,77.32,30.14,55.2,66.32,79.87,68.01,Austria,47.2692124,11.4041024
Perth,77.29,33.08,56.57,76.45,72.08,110.04,Australia,-31.9523123,115.861309
Charleston,77.26,48.61,63.83,77.13,78.68,121.26,United States,32.7764749,-79.93105120000001
Asheville,77.25,45.36,62.3,85.59,71.12,94.16,United States,35.5950581,-82.5514869
Lyon,77.21,31.45,55.76,76.04,71.34,82.65,France,45.764043,4.835659
Leiden,77.2,37.29,58.49,66.23,76.16,77.18,Netherlands,52.1601144,4.4970097
Helsinki,77.17,38.32,58.96,69.7,83.74,83.51,Finland,60.16985569999999,24.938379
Chicago,77.06,57.25,67.77,73.3,76.34,135.26,United States,41.8781136,-87.6297982
Fort Lauderdale,76.86,56.56,67.35,81.28,82.48,101.32,United States,26.1224386,-80.13731740000001
Portland,76.83,52.91,65.62,75.46,74.61,108.09,United States,45.515232,-122.6783853
Melbourne,76.76,38.65,58.9,77.78,74.68,102.16,Australia,-37.8136276,144.9630576
Osaka,76.71,29.13,54.41,82.24,44.42,81.58,Japan,34.6937249,135.5022535
Wellington,76.66,45.43,62.02,75.75,69.08,85.49,New Zealand,-41.2923814,174.7787463
Victoria,76.65,44.9,61.77,80.26,79.11,89.12,Canada,48.4284207,-123.3656444
Vancouver,76.61,56.47,67.17,79.84,74.29,87.68,Canada,49.2827291,-123.1207375
Atlanta,76.6,48.58,63.47,78.0,70.94,130.67,United States,33.7489954,-84.3879824
Adelaide,76.59,32.79,56.06,78.09,67.72,104.24,Australia,-34.9284989,138.6007456
Lund,76.58,28.43,54.01,72.64,72.53,104.91,Sweden,55.7046601,13.1910073
Toulouse,76.57,24.74,52.27,75.31,79.45,90.06,France,43.604652,1.444209
Guelph,76.36,38.13,58.44,77.93,82.35,79.64,Canada,43.5448048,-80.24816659999999
Rotterdam,76.24,41.74,60.07,64.83,76.3,91.36,Netherlands,51.9244201,4.4777325
Saint Paul,76.17,43.96,61.07,73.4,77.55,106.63,United States,44.9537029,-93.0899578
Cork,76.15,42.64,60.44,62.63,82.01,84.45,Ireland,51.8985143,-8.4756035
Guildford,76.02,49.12,63.41,66.52,74.95,78.75,United Kingdom,51.23622,-0.570409
Plano,75.94,48.36,63.01,77.11,61.45,105.41,United States,33.0198431,-96.6988856
Canberra,75.94,42.5,60.26,76.81,79.07,105.11,Australia,-35.2801903,149.1310038
Tampa,75.83,46.37,62.02,80.03,74.23,98.28,United States,27.950575,-82.4571776
Gold Coast,75.8,39.95,58.99,73.38,73.8,101.22,Australia,-28.016667,153.4
Oxford,75.68,49.17,63.25,65.9,75.45,104.03,United Kingdom,51.7520209,-1.2577263
Nagoya,75.62,57.61,67.18,82.53,40.27,57.39,Japan,35.18145060000001,136.9065571
Lincoln,75.6,22.24,50.59,60.86,90.13,88.99,United Kingdom,53.2294565,-0.5426827
York,75.52,34.08,56.1,62.37,80.71,73.46,United Kingdom,53.9614205,-1.0739108
San Diego,75.47,68.77,72.33,73.82,78.67,127.94,United States,32.715738,-117.1610838
Cleveland,75.41,35.29,56.6,76.36,79.48,125.32,United States,41.49932,-81.6943605
Omaha,75.31,30.21,54.17,72.55,80.25,106.03,United States,41.2565369,-95.9345034
Leuven,75.27,28.6,53.39,64.58,85.8,83.59,Belgium,50.8822871,4.7137645
Reading,75.27,41.7,59.53,63.44,85.76,100.89,United Kingdom,51.45512009999999,-0.9787475
Hamilton,75.24,31.02,54.51,74.45,72.93,123.18,New Zealand,-37.7825893,175.2527624
Denver,75.16,55.36,65.88,72.13,76.59,129.98,United States,39.7392358,-104.990251
Uppsala,75.08,27.8,52.92,68.03,76.36,83.94,Sweden,59.85856380000001,17.6389267
Newcastle,74.99,37.63,57.48,74.17,79.49,118.92,Australia,-32.9282712,151.7816802
Halifax,74.91,34.04,55.75,82.91,65.22,87.92,Canada,44.8857087,-63.1005273
Milan,74.8,44.61,60.65,62.83,80.37,53.96,Italy,45.4642035,9.189982
Sliema,74.78,31.54,54.51,68.77,82.09,47.96,Malta,35.9110081,14.502904
Graz,74.59,22.54,50.19,70.69,62.68,79.03,Austria,47.070714,15.439504
Brussels,74.39,33.35,55.15,64.69,77.0,87.04,Belgium,50.8476424,4.3571696
Buffalo,74.29,29.56,53.32,72.4,73.62,124.36,United States,42.88644679999999,-78.8783689
Toronto,74.29,51.78,63.74,69.91,74.36,101.29,Canada,43.653226,-79.3831843
Colorado Springs,74.26,41.51,58.91,74.4,72.77,137.64,United States,38.8338816,-104.8213634
Fremont,74.12,74.93,74.5,75.4,71.0,157.35,United States,37.5485396,-121.988583
Limerick,74.11,40.25,58.24,61.06,77.49,96.5,Ireland,52.6638367,-8.6267343
Salem,73.98,35.81,56.09,78.63,63.1,89.2,United States,42.51954,-70.8967155
The Hague (Den Haag),73.94,41.27,58.63,64.74,76.42,88.51,Netherlands,52.0704978,4.3006999
Hobart,73.93,37.44,56.83,71.28,73.19,101.63,Australia,-42.8826055,147.3257196
Christchurch,73.85,32.58,54.51,72.38,70.9,90.2,New Zealand,-43.5320214,172.6305589
Malmo,73.75,26.67,51.68,67.5,79.03,84.86,Sweden,55.604981,13.003822
San Jose,73.71,82.3,77.74,70.53,74.25,157.39,United States,37.33874,-121.8852525
Nashville,73.62,53.5,64.19,73.46,74.0,111.46,United States,36.1626638,-86.7816016
Enschede,73.61,28.67,52.54,66.31,76.96,93.83,Netherlands,52.2215372,6.8936619
Olympia,73.58,37.93,56.87,77.67,81.13,108.83,United States,47.0378741,-122.9006951
Maastricht,73.56,36.64,56.26,65.97,72.83,86.5,Netherlands,50.8513682,5.6909725
Baltimore,73.56,41.68,58.61,74.65,73.38,136.13,United States,39.2903848,-76.6121893
New Orleans,73.55,43.45,59.44,69.49,76.72,92.88,United States,29.95106579999999,-90.0715323
Linz,73.55,26.48,51.49,67.58,75.39,78.35,Austria,48.30694,14.28583
Calgary,73.4,34.08,54.97,70.06,72.09,114.16,Canada,51.04473309999999,-114.0718831
Edinburgh,73.15,37.38,56.38,59.68,84.71,88.03,United Kingdom,55.953252,-3.188267
Ottawa,73.15,39.86,57.54,70.8,73.74,94.3,Canada,45.4215296,-75.69719309999999
Milton Keynes,73.14,37.65,56.5,60.6,73.63,73.92,United Kingdom,52.0406224,-0.7594171
Manchester,73.14,34.94,55.23,60.14,87.5,91.33,United Kingdom,53.4807593,-2.2426305
Mississauga,73.12,47.77,61.24,67.93,65.27,99.7,Canada,43.5890452,-79.6441198
Cambridge,73.05,46.16,60.44,60.4,83.11,92.85,United Kingdom,52.1950788,0.1312729
Gothenburg,72.97,31.35,53.46,65.03,77.34,101.17,Sweden,57.70887,11.97456
Edmonton,72.86,29.03,52.32,68.2,73.73,109.54,Canada,53.5460983,-113.4937266
Parma,72.81,21.7,48.85,60.1,77.72,60.66,Italy,44.801485,10.3279036
Genoa,72.79,19.72,47.91,69.58,71.05,51.57,Italy,44.4056499,8.946256
Frankfurt,72.78,39.15,57.02,58.44,66.41,106.89,Germany,50.1109221,8.6821267
Fort Collins,72.75,43.09,58.84,83.18,56.71,100.34,United States,40.5852602,-105.084423
Grenoble,72.67,21.4,48.64,72.16,66.83,81.58,France,45.188529,5.724524
Bergamo,72.64,23.27,49.5,65.21,73.57,63.32,Italy,45.6982642,9.6772698
Derby,72.57,21.68,48.71,58.01,80.36,119.81,United Kingdom,52.9225301,-1.4746186
Iowa City,72.54,31.69,53.39,78.24,62.48,85.03,United States,41.6611277,-91.5301683
Delft,72.54,30.43,52.8,65.99,63.12,91.65,Netherlands,52.01157689999999,4.3570677
Syracuse,72.53,31.3,53.2,79.21,65.02,78.44,United States,43.0481221,-76.14742439999999
Everett,72.38,45.16,59.62,72.08,81.87,101.79,United States,47.9789848,-122.2020794
Saskatoon,72.27,27.99,51.51,68.37,69.98,88.18,Canada,52.157902,-106.6701577
Heidelberg,72.14,32.91,53.75,52.74,77.41,102.21,Germany,49.3987524,8.6724335
Markham,72.1,45.74,59.74,65.21,77.13,108.69,Canada,43.8561002,-79.3370188
Hamburg,72.01,36.75,55.48,57.23,68.12,101.1,Germany,53.5510846,9.9936818
Red Deer,71.73,22.46,48.64,70.32,65.19,123.94,Canada,52.2690328,-113.8114955
Surrey,71.67,40.84,57.22,71.55,72.28,98.13,Canada,49.1913466,-122.8490125
Trieste,71.65,18.08,46.54,64.55,73.07,63.01,Italy,45.6495264,13.7768182
Rochester,71.57,29.13,51.68,71.98,69.13,100.12,United States,43.15657789999999,-77.6088465
Milwaukee,71.56,39.74,56.65,73.6,68.6,109.19,United States,43.0389025,-87.9064736
Albany,71.49,34.7,54.24,69.53,78.98,129.75,United States,42.6525793,-73.7562317
Liverpool,71.39,26.18,50.19,56.4,86.7,90.09,United Kingdom,53.4083714,-2.9915726
Nottingham,71.34,26.73,50.43,65.7,70.68,91.62,United Kingdom,52.9540223,-1.1549892
Antwerp,71.33,25.8,49.99,61.55,76.0,90.25,Belgium,51.2213404,4.4051485
Bristol,71.32,40.45,56.85,56.75,83.16,84.81,United Kingdom,51.454513,-2.58791
Tampere,71.19,25.36,49.71,61.78,84.07,91.43,Finland,61.4977524,23.7609535
Portsmouth,71.16,30.52,52.11,62.31,78.14,85.02,United Kingdom,50.8197675,-1.0879769
Bonn,71.08,30.96,52.27,53.92,73.85,95.72,Germany,50.73743,7.0982068
Marseille,71.05,23.86,48.93,72.68,64.74,95.31,France,43.296482,5.36978
Rome,71.0,37.19,55.15,62.72,70.26,51.33,Italy,41.9027835,12.4963655
Tauranga,70.87,26.04,49.86,73.26,67.88,84.35,New Zealand,-37.6869653,176.1654272
Florence,70.81,27.63,50.57,65.22,73.13,53.36,Italy,43.7695604,11.2558136
Plymouth,70.7,24.61,49.1,58.0,73.68,84.01,United Kingdom,50.3754565,-4.1426565
Detroit,70.68,36.65,54.73,68.34,67.09,110.05,United States,42.331427,-83.0457538
Reno,70.67,46.95,59.55,71.66,71.09,96.91,United States,39.529919,-119.8142691
Oulu,70.62,20.64,47.19,66.72,69.74,101.06,Finland,65.0120888,25.4650773
Montreal,70.6,31.2,52.13,73.62,68.41,89.93,Canada,45.5018869,-73.56739189999999
Salzburg,70.53,32.15,52.54,66.99,68.46,77.81,Austria,47.80949,13.05501
London,70.49,36.54,54.57,64.74,79.2,100.36,Canada,42.9849233,-81.2452768
Brampton,70.44,39.17,55.78,69.11,60.26,103.49,Canada,43.7315479,-79.7624177
Fort Worth,70.42,40.41,56.35,70.1,66.32,112.62,United States,32.7554883,-97.3307658
Durham,70.37,42.09,57.11,80.32,66.25,104.76,United States,35.9940329,-78.898619
Winnipeg,70.33,27.37,50.19,70.13,62.04,101.59,Canada,49.8954221,-97.1385145
Ann Arbor,70.28,47.97,59.82,74.16,63.62,159.99,United States,42.2808256,-83.7430378
Greensboro,70.27,37.64,54.98,72.21,70.22,92.73,United States,36.0726354,-79.7919754
San Juan,70.14,32.29,52.4,74.76,58.11,66.7,Puerto Rico,18.4670588,-66.1184593
Charlotte,70.06,51.42,61.32,69.24,67.63,144.88,United States,35.2270869,-80.8431267
Norwich,70.06,26.85,49.81,62.4,73.92,79.66,United Kingdom,52.6292567,1.2978802
Gent,69.97,27.3,49.97,60.18,76.78,77.4,Belgium,51.0500182,3.7303351
Exeter,69.9,31.96,52.11,54.86,74.18,93.92,United Kingdom,50.72603669999999,-3.5274889
Dortmund,69.89,21.15,47.04,56.17,60.72,105.62,Germany,51.5135872,7.465298100000001
Long Beach,69.87,57.14,63.9,73.73,74.39,110.03,United States,33.7700504,-118.1937395
Bologna,69.79,26.48,49.49,61.83,74.24,58.89,Italy,44.494887,11.3426163
North Vancouver,69.79,55.44,63.07,70.45,70.77,110.05,Canada,49.3199816,-123.0724139
Kelowna,69.73,41.68,56.58,64.84,71.84,77.45,Canada,49.8879519,-119.4960106
Columbus,69.7,37.02,54.38,67.9,68.94,151.29,United States,39.9611755,-82.99879419999999
Brescia,69.64,18.56,45.7,63.15,69.04,69.1,Italy,45.5415526,10.2118019
Eugene,69.64,37.71,54.67,78.13,67.36,88.21,United States,44.0520691,-123.0867536
Macao,69.61,41.06,56.23,72.72,51.65,67.31,Macao,22.198745,113.543873
Cologne,69.59,31.03,51.51,56.46,64.7,89.1,Germany,50.937531,6.9602786
Jacksonville,69.51,35.37,53.51,74.58,70.42,144.3,United States,30.3321838,-81.65565099999999
Regina,69.44,26.68,49.4,70.31,66.08,104.02,Canada,50.4452112,-104.6188944
Phoenix,69.37,43.85,57.4,66.78,71.42,135.94,United States,33.4483771,-112.0740373
Des Moines,69.33,30.03,50.91,72.4,65.94,108.35,United States,41.5868353,-93.6249593
Quebec City,68.99,21.46,46.71,69.42,65.08,87.22,Canada,46.8130816,-71.20745959999999
Fresno,68.97,34.02,52.59,64.72,72.91,116.4,United States,36.7377981,-119.7871247
Berlin,68.94,38.59,54.71,56.41,61.05,105.86,Germany,52.52000659999999,13.404954
Cardiff,68.91,29.64,50.51,56.87,76.53,106.17,United Kingdom,51.483707,-3.1680962
Windsor,68.88,31.13,51.19,64.56,71.92,58.02,Canada,42.3149367,-83.03636329999999
Glasgow,68.76,28.82,50.04,55.63,77.95,96.42,United Kingdom,55.864237,-4.251806
Kitchener,68.7,35.83,53.29,67.31,70.72,73.85,Canada,43.4516395,-80.4925337
Vancouver,68.57,43.47,56.8,64.68,69.82,126.09,United States,45.6280277,-122.673865
Kingston,68.57,33.0,51.9,68.42,65.4,75.42,Canada,44.2311717,-76.4859544
Augsburg,68.51,25.89,48.53,55.01,66.96,79.93,Germany,48.3705449,10.89779
Stuttgart,68.38,35.27,52.86,55.5,71.32,109.02,Germany,48.7758459,9.1829321
Vienna,68.36,34.66,52.56,61.71,66.93,79.56,Austria,48.2081743,16.3738189
Mannheim,68.35,22.77,46.98,51.32,65.4,95.07,Germany,49.4874592,8.466039499999999
Las Vegas,68.34,38.21,54.22,61.14,73.39,124.83,United States,36.171563,-115.1391009
Boise,68.29,43.29,56.57,60.93,81.52,82.63,United States,43.6150186,-116.2023137
Dusseldorf,68.28,32.44,51.48,52.64,68.8,109.99,Germany,51.2277411,6.7734556
Raleigh,68.2,41.39,55.63,70.36,69.44,144.12,United States,35.7795897,-78.6381787
Pisa,68.17,22.37,46.7,66.1,66.85,52.1,Italy,43.7228386,10.4016888
Spokane,68.11,35.09,52.63,64.88,70.34,112.36,United States,47.6587802,-117.4260466
Orlando,68.1,45.87,57.68,66.7,69.78,123.32,United States,28.5383832,-81.3789269
Dayton,68.03,27.92,49.23,66.09,59.01,79.21,United States,39.7589478,-84.1916069
Verona,67.98,21.34,46.11,62.32,68.68,63.11,Italy,45.43838419999999,10.9916215
Dallas,67.85,50.17,59.56,63.61,71.74,170.66,United States,32.7766642,-96.79698789999999
Richmond,67.75,37.52,53.58,65.07,77.5,130.94,United States,37.5407246,-77.4360481
Louisville,67.71,32.24,51.09,70.16,69.26,109.65,United States,38.2526647,-85.7584557
Southampton,67.59,32.4,51.09,55.69,69.59,98.44,United Kingdom,50.9105468,-1.4049018
Leeds,67.57,30.47,50.18,56.17,75.71,88.49,United Kingdom,53.8007554,-1.5490774
Treviso,67.54,21.03,45.74,60.07,72.34,61.95,Italy,45.6668893,12.2430437
Madison,67.32,38.75,53.93,66.91,72.34,132.13,United States,43.0721661,-89.4007501
Birmingham,67.25,33.1,51.24,55.36,68.91,81.78,United Kingdom,52.48624299999999,-1.890401
Indianapolis,67.14,36.12,52.6,67.62,67.64,121.53,United States,39.768403,-86.158068
Hanover,67.04,27.03,48.29,55.62,60.74,95.57,Germany,52.3758916,9.732010400000002
Nuremberg,66.97,25.4,47.49,55.63,60.21,115.65,Germany,49.4521018,11.0766654
Hamilton,66.95,35.98,52.43,67.04,66.75,86.35,Canada,43.2557206,-79.8711024
Coventry,66.94,28.91,49.11,58.06,63.75,108.7,United Kingdom,52.4128163,-1.5089521
Newcastle upon Tyne,66.86,25.72,47.57,56.08,71.13,97.66,United Kingdom,54.978252,-1.61778
Saint Louis,66.83,32.58,50.78,67.03,66.47,123.2,United States,38.6270025,-90.19940419999999
Ulm,66.67,28.74,48.89,50.43,68.61,107.39,Germany,48.4010822,9.987607599999999
Stoke-on-Trent,66.58,17.51,43.58,52.76,73.8,97.94,United Kingdom,53.0033369,-2.1827408
Austin,66.5,57.68,62.36,67.33,73.74,158.21,United States,30.267153,-97.7430608
Dundee,66.46,23.27,46.22,56.19,73.5,82.43,United Kingdom,56.462018,-2.970721
Saarbrucken,66.3,22.43,45.73,50.44,73.24,85.4,Germany,49.2381697,6.997547
Kansas City,66.07,33.5,50.8,60.66,75.16,127.2,United States,39.0997265,-94.5785667
Cagliari,66.06,18.51,43.77,58.2,67.44,57.68,Italy,39.2238411,9.1216613
Karlsruhe,65.88,27.8,48.03,51.61,66.17,103.03,Germany,49.0068901,8.4036527
Sheffield,65.88,26.92,47.62,57.43,63.83,89.07,United Kingdom,53.38112899999999,-1.470085
Taipei,65.8,24.64,46.5,80.24,34.24,59.33,Taiwan,25.0329636,121.5654268
Belfast,65.74,26.12,47.17,57.73,74.02,91.62,United Kingdom,54.59728500000001,-5.93012
Chattanooga,65.69,37.25,52.36,69.0,60.43,91.7,United States,35.0457984,-85.3093995
Darmstadt,65.48,27.73,47.78,52.99,60.54,108.54,Germany,49.8728253,8.6511929
Limassol,65.26,29.86,48.66,53.36,72.33,55.84,Cyprus,34.6786322,33.0413055
Turin,65.19,22.02,44.95,59.26,64.02,67.23,Italy,45.0703393,7.686864
St.Catharines,65.18,32.67,49.94,63.59,56.27,71.18,Canada,43.1593745,-79.2468626
Best,65.13,28.11,47.78,59.33,66.34,97.21,Netherlands,51.5077637,5.3978482
Toledo,64.99,22.91,45.26,64.78,63.45,90.45,United States,41.6528052,-83.5378674
Salt Lake City,64.95,42.34,54.35,61.4,65.68,140.61,United States,40.7607793,-111.8910474
Oklahoma City,64.94,31.83,49.42,69.97,57.78,127.95,United States,35.4675602,-97.5164276
Padova,64.93,22.03,44.82,52.16,69.96,66.62,Italy,45.4064349,11.8767611
Leicester,64.91,24.93,46.17,52.47,72.19,92.59,United Kingdom,52.6368778,-1.1397592
Freiburg im Breisgau,64.65,35.49,50.98,50.02,62.73,94.46,Germany,47.9990077,7.842104299999999
Erlangen,64.54,24.83,45.93,49.25,67.89,131.75,Germany,49.5896744,11.0119611
Nicosia,64.53,19.34,43.35,52.57,65.96,60.28,Cyprus,35.1855659,33.38227639999999
Cincinnati,64.39,39.74,52.83,64.25,63.76,125.17,United States,39.1031182,-84.5120196
Tucson,64.34,27.66,47.15,61.91,65.88,83.69,United States,32.2539787,-110.9741769
Dubai,64.32,44.08,54.83,48.24,70.7,101.11,United Arab Emirates,25.2048493,55.2707828
Houston,63.94,43.38,54.3,61.26,67.45,172.98,United States,29.7604267,-95.3698028
Bilbao,63.81,26.88,46.5,57.84,61.97,65.48,Spain,43.2630126,-2.9349852
Bournemouth,63.73,32.77,49.21,48.72,68.9,76.52,United Kingdom,50.7220101,-1.8667169
Mesa,63.66,32.99,49.28,63.2,72.07,103.42,United States,33.4151843,-111.8314724
Essen,63.61,20.98,43.63,47.32,65.81,81.89,Germany,51.4556432,7.0115552
Albuquerque,63.44,33.91,49.6,64.6,64.07,122.44,United States,35.0843859,-106.650422
Aberdeen,63.4,23.06,44.49,47.87,77.47,102.02,United Kingdom,57.1498891,-2.0937528
Lexington,62.92,29.27,47.15,69.21,55.65,102.4,United States,38.0405837,-84.5037164
Doha,62.9,49.19,56.48,55.14,63.0,89.93,Qatar,25.2854473,51.53103979999999
Leipzig,62.83,23.29,44.3,47.91,55.86,79.8,Germany,51.3396955,12.3730747
San Antonio,62.59,38.27,51.19,57.25,69.45,137.67,United States,29.4251905,-98.4945922
Bari,62.59,18.14,41.75,53.28,65.58,64.98,Italy,41.1171432,16.8718715
Dresden,62.46,21.21,43.12,47.74,58.64,109.14,Germany,51.0504088,13.7372621
Tulsa,62.35,28.92,46.68,58.89,60.48,132.05,United States,36.1539816,-95.99277500000001
Naples,62.35,21.37,43.14,53.19,59.26,56.2,Italy,40.8517983,14.26812
Memphis,62.29,34.91,49.45,58.08,69.54,109.95,United States,35.1495343,-90.0489801
Bremen,62.24,23.82,44.23,48.69,61.63,77.06,Germany,53.07929619999999,8.8016937
Akron,62.2,22.9,43.78,63.55,55.56,102.89,United States,41.0814447,-81.51900529999999
Kingston upon Hull,62.07,21.79,43.19,52.73,63.89,86.57,United Kingdom,53.76762360000001,-0.3274198
Aachen,61.81,21.74,43.03,49.49,57.99,116.48,Germany,50.7753455,6.083886800000001
Kaohsiung,61.4,15.91,40.08,75.57,28.88,55.49,Taiwan,22.6272784,120.3014353
Regensburg,61.36,27.54,45.51,47.29,61.66,103.28,Germany,49.0134297,12.1016236
Barcelona,61.15,30.6,46.83,49.39,61.89,70.83,Spain,41.3873974,2.168568
Little Rock,59.26,25.6,43.48,57.28,64.63,131.07,United States,34.7444618,-92.2880157
Port of Spain,59.2,19.23,40.46,51.98,73.56,40.68,Trinidad And Tobago,10.6603196,-61.5085625
Madrid,59.01,31.95,46.32,49.14,62.31,74.83,Spain,40.4167754,-3.7037902
Palma de Mallorca,58.97,28.92,44.88,48.41,61.53,63.24,Spain,39.5696005,2.6501603
Athens,58.97,17.92,39.73,46.99,60.78,40.03,Greece,37.9838096,23.7275388
Wichita,58.92,24.26,42.67,53.08,57.42,119.24,United States,37.68717609999999,-97.33005299999999
Patras,58.74,10.18,35.98,43.05,43.7,37.37,Greece,38.2466395,21.734574
Thessaloniki,58.4,13.6,37.4,43.85,55.28,37.91,Greece,40.6400629,22.9444191
Palermo,57.97,14.72,37.7,49.5,52.07,58.89,Italy,38.11569,13.3614868
Abu Dhabi,57.89,91.8,73.79,49.79,58.49,75.22,United Arab Emirates,24.453884,54.3773438
Larnaca,57.38,19.76,39.74,47.83,55.84,55.32,Cyprus,34.9182222,33.6200625
Catania,57.35,17.53,38.68,44.63,61.39,54.62,Italy,37.5078772,15.0830304
Male,57.26,29.87,44.42,56.24,33.01,28.52,Maldives,4.1754959,73.5093474
Ljubljana,57.18,23.5,41.4,49.44,52.01,60.19,Slovenia,46.0569465,14.5057515
Heraklion,57.08,15.25,37.47,47.25,44.72,36.04,Greece,35.3387352,25.1442126
El Paso,55.92,23.17,40.56,54.45,48.18,118.77,United States,31.7618778,-106.4850217
Havana,55.91,17.2,37.77,45.92,40.14,1.62,Cuba,23.1135925,-82.3665956
Tallinn,55.75,19.24,38.63,42.71,58.55,64.89,Estonia,59.43696079999999,24.7535746
Zaragoza (Saragossa),54.8,18.03,37.56,48.83,54.8,69.32,Spain,41.6488226,-0.8890853
Panama City,54.54,26.23,41.27,55.82,47.98,32.31,Panama,8.9823792,-79.51986959999999
Manama,54.3,28.18,42.06,42.9,50.3,62.59,Bahrain,26.2235305,50.5875935
Shanghai,53.9,44.47,49.48,57.06,42.55,53.0,China,31.230416,121.473701
Riyadh,53.85,16.29,36.24,43.62,43.19,92.73,Saudi Arabia,24.7135517,46.6752957
Tartu,53.79,15.16,35.68,45.81,54.85,60.53,Estonia,58.37798299999999,26.7290383
Vigo,53.43,17.42,36.55,43.92,55.09,74.98,Spain,42.24059889999999,-8.7207268
Seville (Sevilla),53.28,20.95,38.13,49.6,47.29,71.04,Spain,37.3890924,-5.9844589
Valencia,52.97,22.45,38.67,45.34,55.18,70.04,Spain,39.4699075,-0.3762881
Paphos,52.86,16.35,35.74,43.42,52.53,61.21,Cyprus,34.77539489999999,32.4217786
Makati,52.72,28.6,41.41,57.92,29.33,20.57,Philippines,14.554729,121.0244452
Ajman,52.58,27.92,41.02,38.45,59.57,48.26,United Arab Emirates,25.4052165,55.5136433
Jeddah (Jiddah),52.57,11.1,33.13,43.47,36.65,76.08,Saudi Arabia,21.485811,39.19250479999999
Malaga,52.52,26.1,40.14,44.09,51.62,65.84,Spain,36.7211784,-4.421719899999999
Amman,52.18,10.63,32.7,41.65,48.02,29.51,Jordan,31.9539494,35.910635
Granada,52.03,16.04,35.16,44.53,46.02,81.61,Spain,37.1774605,-3.5984368
Montevideo,52.0,15.11,34.71,43.85,47.54,30.79,Uruguay,-34.9011127,-56.16453139999999
Prague,51.78,26.02,39.7,45.19,42.51,71.96,Czech Republic,50.0755381,14.4378005
Murcia,51.73,16.05,35.01,44.19,51.54,78.54,Spain,37.9922399,-1.1306544
Lisbon,51.7,31.39,42.18,40.29,50.65,48.26,Portugal,38.7222524,-9.1393366
Maribor,51.64,14.31,34.14,44.32,43.38,68.02,Slovenia,46.5546503,15.6458812
Split,51.59,15.72,34.78,44.75,46.61,42.48,Croatia,43.5147118,16.4435148
Kingston,51.57,18.43,36.04,53.78,38.03,26.11,Jamaica,18.0178743,-76.8099041
Riga,51.54,14.75,34.29,38.97,50.95,52.82,Latvia,56.9676941,24.1056221
Alicante,51.47,19.85,36.65,43.08,52.15,79.93,Spain,38.3459963,-0.4906855
Muscat,51.24,18.54,35.91,47.14,48.5,86.53,Oman,23.5880307,58.3828717
Shenzhen,51.08,28.06,40.29,57.71,34.42,68.96,China,22.5428599,114.05956
Santa Cruz de Tenerife,50.92,19.62,36.25,43.04,52.25,63.82,Spain,28.4636296,-16.2518467
Dakar,50.87,23.33,37.96,42.88,46.64,23.14,Senegal,14.716677,-17.4676861
Cascais,50.86,38.41,45.03,38.25,55.25,41.22,Portugal,38.6970565,-9.4222945
Las Palmas de Gran Canaria,50.52,23.41,37.81,45.62,47.89,56.7,Spain,28.1008837,-15.4653897
Addis Ababa,50.49,17.44,35.0,36.77,21.45,9.83,Ethiopia,8.9806034,38.7577605
Bangkok,50.36,26.45,39.15,50.2,25.83,29.77,Thailand,13.7563309,100.5017651
Rijeka,50.14,12.26,32.38,44.3,46.92,43.59,Croatia,45.3270631,14.442176
Phnom Penh,50.1,18.84,35.44,54.48,23.19,14.8,Cambodia,11.5563738,104.9282099
Zagreb,49.88,17.1,34.51,42.03,40.36,55.08,Croatia,45.8150108,15.981919
Beijing,49.53,39.16,44.67,47.4,39.45,53.08,China,39.904211,116.407395
Bratislava,49.44,23.04,37.06,41.99,44.73,62.63,Slovakia,48.1485965,17.1077477
Porto,49.37,23.62,37.3,40.25,42.42,44.87,Portugal,41.1579438,-8.629105299999999
Brno,49.29,20.98,36.02,42.93,39.2,65.14,Czech Republic,49.1950602,16.6068371
Hangzhou,49.21,20.44,35.73,58.0,33.46,64.95,China,30.2741499,120.15515
Paramaribo,49.19,10.1,30.87,48.25,61.28,16.38,Suriname,5.8520355,-55.2038278
Funchal,49.16,20.61,35.78,38.93,40.06,46.47,Portugal,32.6506129,-16.9082357
Sharjah,49.03,54.01,51.36,41.01,36.79,56.71,United Arab Emirates,25.3461555,55.42109319999999
Ad Dammam,48.45,12.66,31.67,42.97,34.27,93.58,Saudi Arabia,26.4206828,50.0887943
Olomouc,48.21,14.98,32.63,44.03,33.18,61.3,Czech Republic,49.593778,17.2508787
Kosice,48.19,17.39,33.75,39.27,44.47,51.15,Slovakia,48.7163857,21.2610746
Kuwait City,48.0,31.21,40.13,35.81,47.2,68.84,Kuwait,29.375859,47.9774052
San Jose,47.65,17.47,33.51,46.14,43.16,42.86,Costa Rica,9.9280694,-84.0907246
Coimbra,47.35,15.51,32.43,39.88,38.17,53.04,Portugal,40.2033145,-8.4102573
Abidjan,47.06,19.73,34.25,40.32,32.22,6.27,Ivory Coast,5.3599517,-4.0082563
Braga,46.99,19.1,33.92,39.26,39.03,46.28,Portugal,41.5454486,-8.426506999999999
Vilnius,46.94,19.22,33.95,36.84,48.79,62.14,Lithuania,54.6871555,25.2796514
Ostrava,46.47,13.56,31.04,41.28,33.71,65.17,Czech Republic,49.8209226,18.2625243
Aveiro,46.46,17.99,33.11,39.33,37.07,43.88,Portugal,40.6405055,-8.6537539
Budapest,46.13,16.01,32.01,39.18,41.98,52.66,Hungary,47.497912,19.040235
Suzhou,45.94,16.81,32.28,51.0,38.07,58.75,China,31.29833989999999,120.58319
Harare,45.69,9.56,28.75,37.05,39.05,17.59,Zimbabwe,-17.8216288,31.0492259
Leiria,45.67,15.46,31.51,36.37,45.81,49.68,Portugal,39.74953310000001,-8.807682999999999
Santiago,45.64,15.3,31.42,40.12,47.92,32.08,Chile,-33.4488897,-70.6692655
San Salvador,45.32,14.02,30.65,44.47,37.11,21.83,El Salvador,13.6929403,-89.2181911
Caracas,45.31,12.08,29.73,37.6,48.6,15.87,Venezuela,10.4805937,-66.90360629999999
Johannesburg,44.87,15.89,31.28,35.54,41.17,72.15,South Africa,-26.2041028,28.0473051
Kaunas,44.74,13.22,29.97,36.18,45.77,64.93,Lithuania,54.8985207,23.9035965
Santo Domingo,44.66,10.69,28.74,41.48,35.56,22.21,Dominican Republic,18.4860575,-69.93121169999999
Guatemala City,44.59,16.09,31.23,42.19,33.71,24.37,Guatemala,14.6349149,-90.5068824
Phuket,44.34,16.39,31.24,46.43,28.95,27.28,Thailand,7.9519331,98.33808839999999
Warsaw,43.94,20.55,32.98,33.93,42.14,66.04,Poland,52.2296756,21.0122287
Chengdu,43.81,12.87,29.31,50.73,27.4,56.04,China,30.5722599,104.0665099
Osijek,43.61,9.63,27.68,37.23,35.41,56.42,Croatia,45.5549624,18.6955144
Quezon City,43.26,11.0,28.14,43.83,22.8,19.69,Philippines,14.6760413,121.0437003
Gdynia,42.92,15.33,29.98,34.59,38.35,50.58,Poland,54.5188898,18.5305409
Bali,42.87,16.31,30.42,46.21,23.86,14.1,Indonesia,-8.4095178,115.188916
Pretoria,42.76,14.21,29.38,35.05,36.46,87.26,South Africa,-25.7478676,28.2292712
Gaborone,42.7,11.81,28.22,35.71,52.25,51.4,Botswana,-24.6282079,25.9231471
Nanjing,42.29,15.91,29.93,43.25,28.47,72.85,China,32.0583799,118.79647
Sofia,42.24,14.58,29.27,36.68,38.75,55.31,Bulgaria,42.6977082,23.3218675
Chiang Mai,42.22,12.69,28.37,46.46,21.6,29.88,Thailand,18.7883439,98.98530079999999
Moscow,42.2,28.04,35.56,33.38,44.85,49.56,Russia,55.755826,37.6173
Pattaya,42.13,13.98,28.93,42.79,26.5,23.25,Thailand,12.9235557,100.8824551
Gdansk,41.32,17.95,30.37,35.0,35.02,64.36,Poland,54.35202520000001,18.6466384
Krakow (Cracow),41.3,17.76,30.26,33.13,37.8,67.1,Poland,50.06465009999999,19.9449799
Wroclaw,41.12,17.52,30.06,33.9,35.12,59.89,Poland,51.1078852,17.0385376
Guangzhou,41.11,21.43,31.88,43.52,27.08,70.13,China,23.1290799,113.26436
Cape Town,40.98,22.64,32.38,34.81,41.41,75.83,South Africa,-33.9248685,18.4240553
Jakarta,40.86,16.46,29.42,41.78,23.44,25.32,Indonesia,-6.2087634,106.845599
Pecs,40.83,12.15,27.39,37.71,33.36,47.23,Hungary,46.0727345,18.232266
Manila,40.77,25.18,33.46,39.85,25.18,22.24,Philippines,14.5995124,120.9842195
Poznan,40.72,14.92,28.63,33.89,35.71,58.32,Poland,52.406374,16.9251681
Quito,40.48,12.62,27.42,38.0,31.34,29.69,Ecuador,-0.1806532,-78.4678382
Durban,40.33,14.69,28.31,33.58,37.72,73.88,South Africa,-29.85868039999999,31.0218404
Katowice,40.26,14.14,28.02,34.41,33.37,64.03,Poland,50.26489189999999,19.0237815
Cluj-Napoca,40.16,14.75,28.25,35.43,36.57,53.12,Romania,46.7712101,23.6236353
Bucharest,40.1,14.84,28.26,33.5,39.45,53.15,Romania,44.4267674,26.1025384
Szeged,40.08,10.23,26.09,35.43,32.33,49.5,Hungary,46.2530102,20.1414253
Belgrade,40.05,13.88,27.78,30.1,34.51,36.05,Serbia,44.8125449,20.46123
Debrecen,40.03,10.81,26.33,37.04,30.39,49.86,Hungary,47.5288879,21.6254485
Petaling Jaya,39.98,13.89,27.75,44.89,22.83,60.88,Malaysia,3.1278871,101.5944885
Marrakech,39.94,12.28,26.97,32.34,33.7,29.96,Morocco,31.6294723,-7.981084500000001
Podgorica,39.34,11.54,26.31,32.87,30.69,35.98,Montenegro,42.4304196,19.2593642
Szczecin,39.31,15.38,28.1,33.75,32.29,51.05,Poland,53.4285438,14.5528116
Kota Kinabalu,39.25,9.87,25.48,47.29,20.16,39.43,Malaysia,5.980408,116.0734568
Kuala Lumpur,39.25,14.13,27.47,41.08,24.67,64.04,Malaysia,3.1569486,101.712303
Varna,39.14,8.32,24.7,34.27,36.27,46.29,Bulgaria,43.2140504,27.9147333
Suva,39.04,18.8,29.55,39.43,35.29,44.68,Fiji,-18.1405049,178.4232507
Cebu,39.04,13.14,26.9,44.17,21.33,17.64,Philippines,10.3156992,123.8854366
Ho Chi Minh City,39.01,17.85,29.09,39.91,21.57,30.87,Vietnam,10.8230989,106.6296638
Cancun,38.85,15.34,27.83,35.22,41.42,38.24,Mexico,21.161908,-86.8515279
Accra,38.74,20.04,29.97,41.01,32.77,21.12,Ghana,5.6037168,-0.1869644
Tirana,38.68,11.33,25.86,30.99,29.86,31.15,Albania,41.3275459,19.8186982
Guayaquil,38.57,11.65,25.95,34.01,29.39,31.41,Ecuador,-2.1894128,-79.8890662
Monterrey,38.46,15.34,27.62,37.47,36.54,42.98,Mexico,25.6866142,-100.3161126
Plovdiv,38.42,9.44,24.84,34.5,31.14,45.56,Bulgaria,42.1354079,24.7452904
Sarajevo,38.42,9.27,24.76,32.34,27.81,43.73,Bosnia And Herzegovina,43.8562586,18.4130763
Lublin,38.04,13.89,26.72,30.29,31.12,60.2,Poland,51.2464536,22.5684463
Erbil (Irbil),38.03,12.56,26.09,32.56,32.77,39.88,Iraq,36.190073,43.9930303
Santa Cruz,38.01,11.6,25.63,33.02,30.64,32.91,Bolivia,-17.8145819,-63.1560853
Isfahan (Esfahan),37.98,17.23,28.25,24.37,18.47,22.77,Iran,32.6538966,51.66596560000001
Lodz,37.94,13.94,26.69,31.45,30.2,57.76,Poland,51.7592485,19.4559833
Saint Petersburg,37.81,17.14,28.12,32.33,36.46,40.77,Russia,59.9310584,30.3609097
Banja Luka,37.61,7.92,23.69,32.6,27.12,38.29,Bosnia And Herzegovina,44.7721811,17.191
Penang,37.61,9.31,24.34,39.6,21.49,65.85,Malaysia,5.414130699999999,100.3287506
La Paz,37.53,10.87,25.03,33.15,27.83,34.57,Bolivia,-16.489689,-68.11929359999999
Sao Paulo,37.51,14.49,26.72,32.13,31.55,29.23,Brazil,-23.5557714,-46.6395571
Novi Sad,37.44,10.32,24.73,29.45,29.78,42.73,Serbia,45.2396085,19.8227056
Mexico City,37.41,20.93,29.68,35.45,37.82,36.74,Mexico,19.4326077,-99.133208
Lagos,37.33,61.89,48.84,39.28,29.59,8.3,Nigeria,6.5243793,3.3792057
Constanta,37.26,11.24,25.06,30.69,37.25,45.4,Romania,44.1598013,28.6348138
Iasi,37.13,11.03,24.9,31.26,33.64,44.06,Romania,47.1584549,27.6014418
Hanoi,36.85,12.21,25.3,38.66,19.21,30.67,Vietnam,21.0277644,105.8341598
Tangier,36.85,10.25,24.38,34.34,26.53,33.16,Morocco,35.7594651,-5.833954299999999
Brasilia,36.84,11.08,24.77,29.88,31.75,43.54,Brazil,-15.7975154,-47.89188739999999
Burgas,36.82,8.09,23.35,32.3,34.44,42.39,Bulgaria,42.50479259999999,27.4626361
Baguio,36.74,9.45,23.95,31.62,17.87,18.71,Philippines,16.4023332,120.5960071
Rio de Janeiro,36.67,11.51,24.88,31.46,29.14,18.93,Brazil,-22.9068467,-43.1728965
Brasov,36.63,12.18,25.17,33.97,30.98,44.65,Romania,45.6426802,25.5887252
Casablanca,36.59,13.49,25.76,31.7,26.04,34.07,Morocco,33.5731104,-7.589843399999999
Damascus,36.38,8.96,23.53,37.61,28.65,5.03,Syria,33.5138073,36.2765279
Sibiu,36.19,9.57,23.71,32.76,33.8,48.27,Romania,45.7935607,24.1212945
Timisoara,36.16,11.23,24.47,32.16,32.52,54.26,Romania,45.7488716,21.2086793
Kampala,35.98,11.5,24.5,32.5,26.61,9.83,Uganda,0.3475964,32.5825197
Nairobi,35.88,13.57,25.42,32.25,30.62,29.23,Kenya,-1.2920659,36.8219462
Merida,35.7,11.58,24.4,35.71,36.46,33.5,Mexico,20.9673702,-89.5925857
Rabat,35.67,14.37,25.68,31.64,29.41,34.67,Morocco,33.9715904,-6.8498129
Qingdao,35.48,13.02,24.95,38.36,24.27,74.04,China,36.0662299,120.38299
Queretaro,35.4,11.31,24.11,37.11,30.27,51.02,Mexico,20.5887932,-100.3898881
Bandung,35.39,7.21,22.18,37.61,15.98,21.84,Indonesia,-6.9174639,107.6191228
Oradea,35.35,7.91,22.49,32.09,28.48,49.45,Romania,47.04650050000001,21.9189438
Buenos Aires,35.25,10.73,23.75,28.54,34.35,26.89,Argentina,-34.6036844,-58.3815591
Dhaka,35.12,6.21,21.57,31.49,24.41,23.81,Bangladesh,23.810332,90.4125181
Skopje,34.9,8.07,22.32,28.77,25.67,37.02,North Macedonia,41.9981294,21.4254355
Ulaanbaatar,34.86,11.11,23.73,36.15,23.35,25.02,Mongolia,47.88639879999999,106.9057439
Craiova,34.85,8.59,22.54,31.58,27.98,52.91,Romania,44.3301785,23.7948808
Agadir,34.81,7.13,21.84,30.66,33.57,31.37,Morocco,30.4277547,-9.5981072
Baghdad,34.81,12.34,24.28,30.46,26.09,39.03,Iraq,33.315241,44.3660671
Surabaya,34.65,10.31,23.24,37.39,17.58,23.63,Indonesia,-7.2574719,112.7520883
Lima,34.6,14.52,25.18,33.18,25.45,28.89,Peru,-12.0463731,-77.042754
Arad,34.49,6.28,21.27,32.69,24.98,50.96,Romania,46.1865606,21.3122677
Florianopolis,34.39,9.68,22.81,27.66,30.26,29.31,Brazil,-27.5948036,-48.5569286
Cuenca,34.21,12.05,23.82,32.87,23.99,30.84,Ecuador,-2.9001285,-79.00589649999999
Kiev (Kyiv),34.11,18.04,26.58,28.93,30.73,48.16,Ukraine,50.4501,30.5234
Gurgaon,34.1,9.8,22.71,34.07,31.55,74.9,India,28.4594965,77.0266383
Guadalajara,34.05,16.78,25.96,34.1,31.66,35.99,Mexico,20.6596988,-103.3496092
Kazan,34.02,12.9,24.12,29.65,32.69,33.45,Russia,55.7878944,49.12332929999999
Yerevan,34.01,11.89,23.64,27.81,31.01,29.73,Armenia,40.1872023,44.515209
Dar es Salaam,33.97,16.59,25.82,31.15,22.16,13.54,Tanzania,-6.792354,39.2083284
Nizhny Novgorod,33.89,9.92,22.65,27.35,35.03,34.95,Russia,56.3268684,44.0058793
Colombo,33.62,13.86,24.36,39.57,19.92,18.58,Sri Lanka,6.9270786,79.861243
Lusaka,33.57,10.18,22.6,32.85,23.63,37.48,Zambia,-15.3875259,28.3228165
Nis,33.4,7.26,21.15,26.46,24.98,40.38,Serbia,43.320926,21.8954069
Yekaterinburg,33.23,10.91,22.77,29.47,27.76,57.77,Russia,56.8430993,60.64540859999999
Minsk,32.79,12.07,23.08,28.51,33.48,31.15,Belarus,53.9006011,27.558972
Krasnodar,32.65,9.79,21.94,28.05,33.82,36.59,Russia,45.036035,38.97457060000001
Mashhad,32.54,18.69,26.05,26.44,25.95,22.68,Iran,36.2972006,59.60669
Belo Horizonte,32.5,7.89,20.97,25.09,21.89,20.99,Brazil,-19.919052,-43.9386685
Cairo,32.39,7.41,20.68,28.71,28.52,24.38,Egypt,30.0444196,31.2357116
Porto Alegre,32.33,8.88,21.34,30.16,24.97,31.24,Brazil,-30.0368176,-51.2089887
Kigali,32.27,16.04,24.66,27.99,29.84,26.37,Rwanda,-1.9440727,30.0618851
Novosibirsk,32.26,9.98,21.81,28.73,31.27,38.35,Russia,54.9832693,82.8963831
Rostov-na-donu,32.1,8.69,21.13,26.56,30.09,36.94,Russia,47.2357137,39.701505
Odessa (Odesa),31.94,10.74,22.01,26.48,30.19,32.72,Ukraine,46.482526,30.7233095
Chisinau,31.82,10.41,21.78,25.52,26.56,34.38,Moldova,47.0104529,28.8638103
Curitiba,31.81,7.62,20.47,27.2,25.31,32.28,Brazil,-25.4372382,-49.2699727
Baku,31.6,9.46,21.23,27.73,29.83,28.03,Azerbaijan,40.40926169999999,49.8670924
Tehran,31.47,22.8,27.41,21.75,25.88,14.55,Iran,35.7218583,51.3346954
Istanbul,31.14,9.97,21.22,23.77,21.01,28.73,Turkey,41.0082376,28.9783589
Tbilisi,30.95,10.25,21.25,26.67,29.06,29.47,Georgia,41.7151377,44.827096
Yogyakarta,30.8,9.77,20.94,36.08,13.91,12.16,Indonesia,-7.7955798,110.3694896
Asuncion,30.62,10.31,21.1,25.52,24.9,27.38,Paraguay,-25.2637399,-57.57592599999999
Kharkiv,30.46,11.6,21.62,26.14,24.61,33.98,Ukraine,49.9935,36.230383
Astana (Nur-Sultan),30.3,10.05,20.81,25.99,30.31,41.0,Kazakhstan,51.16052269999999,71.4703558
Chandigarh,30.27,6.26,19.02,31.11,24.36,46.47,India,30.7333148,76.7794179
Almaty,30.22,11.95,21.65,26.98,28.64,33.55,Kazakhstan,43.2220146,76.8512485
Tunis,29.94,6.45,18.93,28.83,17.08,24.2,Tunisia,36.8064948,10.1815316
Kathmandu,29.87,4.78,18.11,28.05,22.61,23.16,Nepal,27.7172453,85.3239605
Algiers,29.84,6.67,18.98,30.25,20.79,21.78,Algeria,36.753768,3.0587561
Lviv,29.67,10.53,20.7,26.62,24.35,38.3,Ukraine,49.839683,24.029717
Tashkent,29.36,10.66,20.59,28.76,27.02,22.63,Uzbekistan,41.2994958,69.2400734
Mumbai,29.33,19.72,24.82,29.73,25.17,48.03,India,19.0759837,72.8776559
Dnipro,29.26,10.49,20.46,24.57,23.66,32.74,Ukraine,48.464717,35.046183
Noida,29.21,6.37,18.5,29.25,24.46,62.57,India,28.5355161,77.3910265
Medellin,28.81,9.47,19.74,25.65,22.53,32.78,Colombia,6.2476376,-75.56581530000001
Alexandria,28.43,6.64,18.22,27.33,22.78,20.28,Egypt,31.2000924,29.9187387
Barranquilla,28.42,7.77,18.74,25.66,18.16,27.03,Colombia,11.0041072,-74.80698129999999
Navi Mumbai,28.38,10.9,20.19,31.59,23.14,78.67,India,19.0330488,73.0296625
Izmir,28.37,6.39,18.06,23.44,18.66,35.18,Turkey,38.423734,27.142826
Delhi,28.23,8.46,18.96,27.75,24.45,60.44,India,28.7040592,77.10249019999999
Bangalore,28.2,8.59,19.01,31.14,20.04,102.64,India,12.9715987,77.5945627
Bogota,27.94,11.61,20.29,24.33,21.98,26.1,Colombia,4.710988599999999,-74.072092
Goa,27.72,8.47,18.7,28.44,24.88,36.29,India,15.2993265,74.12399599999999
Pune,27.57,7.12,17.98,28.86,22.75,53.68,India,18.5204303,73.8567437
Ghaziabad,27.55,5.26,17.1,28.37,19.88,54.56,India,28.6691565,77.45375779999999
Thane,27.53,8.26,18.5,30.55,23.84,66.14,India,19.2183307,72.9780897
Ranchi,27.33,4.18,16.48,30.58,21.19,38.61,India,23.3440997,85.309562
Ankara,27.17,6.31,17.39,21.43,17.97,39.07,Turkey,39.9333635,32.8597419
Hyderabad,26.61,6.47,17.17,29.69,18.17,51.21,India,17.385044,78.486671
Faridabad,26.56,5.4,16.64,27.34,20.03,51.07,India,28.4089123,77.3177894
Bishkek,26.55,8.34,18.02,24.76,22.54,23.06,Kyrgyzstan,42.8746212,74.5697617
Pristina,26.15,9.04,18.13,22.99,19.69,47.48,Kosovo (Disputed Territory),42.6629138,21.1655028
Chennai,26.08,6.76,17.02,28.88,16.98,46.31,India,13.0826802,80.2707184
Ahmedabad,26.01,5.93,16.59,28.52,19.15,39.11,India,23.022505,72.5713621
Kolkata,25.99,5.57,16.42,28.24,18.89,44.66,India,22.572646,88.36389500000001
Cali,25.78,7.0,16.98,22.61,17.95,31.08,Colombia,3.4516467,-76.5319854
Guwahati,25.61,4.24,15.59,28.59,18.37,39.6,India,26.1157917,91.7085933
Lucknow (Lakhnau),25.42,4.99,15.84,25.72,20.36,48.19,India,26.8466937,80.94616599999999
Madurai,25.38,3.79,15.26,31.29,12.3,32.82,India,9.9252007,78.1197754
Surat,25.34,7.12,16.8,27.62,20.18,41.98,India,21.1702401,72.83106070000001
Vadodara,25.32,4.48,15.55,27.55,19.49,46.1,India,22.3071588,73.1812187
Vijayawada,24.95,5.32,15.75,26.24,16.86,37.17,India,16.5061743,80.6480153
Ludhiana,24.92,3.7,14.97,27.36,18.34,35.75,India,30.900965,75.8572758
Cyberjaya,24.85,6.93,16.45,26.29,14.6,128.47,Malaysia,2.921318,101.6559349
Raipur,24.81,4.44,15.26,27.7,16.98,63.17,India,21.2513844,81.62964130000002
Dehradun,24.75,5.03,15.51,23.54,19.88,40.36,India,30.3164945,78.03219179999999
Nashik,24.6,4.74,15.29,27.92,14.48,35.31,India,19.9974533,73.78980229999999
Indore,24.5,4.59,15.17,26.47,16.27,40.0,India,22.7195687,75.8577258
Rajkot,24.47,4.46,15.09,28.31,16.27,44.8,India,22.3038945,70.80215989999999
Nagpur,24.39,4.45,15.04,26.47,18.85,42.48,India,21.1458004,79.0881546
Ernakulam,24.04,5.82,15.5,26.53,18.27,46.52,India,9.9816358,76.2998842
Visakhapatnam,24.03,5.4,15.3,28.27,14.52,42.7,India,17.6868159,83.2184815
Jaipur,23.97,5.04,15.1,24.58,16.53,51.5,India,26.9124336,75.7872709
Patna,23.97,3.45,14.35,25.81,18.25,36.78,India,25.5940947,85.1375645
Mangalore,23.73,4.58,14.75,27.17,14.87,47.91,India,12.9141417,74.8559568
Bucaramanga,23.7,5.93,15.37,18.09,16.7,30.42,Colombia,7.119349,-73.1227416
Coimbatore,23.45,4.85,14.73,26.68,15.04,40.73,India,11.0168445,76.9558321
Bhopal,23.35,3.58,14.08,24.45,18.7,45.78,India,23.2599333,77.412615
Bhubaneswar,23.34,4.47,14.49,25.97,14.58,54.15,India,20.2960587,85.8245398
Mysore,23.16,4.92,14.61,25.82,14.32,46.46,India,12.2958104,76.6393805
Kochi,22.9,6.3,15.12,25.89,13.48,59.47,India,9.9312328,76.26730409999999
Agra,22.81,2.97,13.51,22.62,19.38,27.91,India,27.1766701,78.00807449999999
Jammu,22.04,2.94,13.08,21.79,19.31,58.35,India,32.7266016,74.8570259
Thiruvananthapuram,21.75,4.43,13.64,22.96,13.59,73.73,India,8.5241391,76.9366376
Kozhikode (Calicut),21.57,4.5,13.57,22.83,12.07,50.02,India,11.2587531,75.78041
Lahore,21.53,4.03,13.33,18.48,17.34,24.42,Pakistan,31.5203696,74.35874729999999
Islamabad,21.5,5.79,14.13,18.39,18.19,29.52,Pakistan,33.6844202,73.04788479999999
Kabul,21.35,3.17,12.83,15.22,14.85,22.79,Afghanistan,34.5553494,69.207486
Thrissur,21.28,3.89,13.13,24.27,11.39,54.43,India,10.5276416,76.2144349
Kanpur,20.79,3.6,12.73,22.19,13.31,38.83,India,26.449923,80.3318736
Karachi,20.75,4.84,13.29,18.48,15.21,29.16,Pakistan,24.8607343,67.0011364
Rawalpindi,20.52,4.78,13.14,18.51,16.18,22.91,Pakistan,33.5651107,73.0169135
Multan,18.68,2.94,11.3,18.37,11.8,25.09,Pakistan,30.157458,71.5249154
Peshawar,18.55,2.37,10.97,16.62,14.39,26.0,Pakistan,34.0151366,71.5249154
